{
  "type": "FeatureCollection",
  "name": "bus",
  "crs": {
    "type": "name",
    "properties": { "name": "urn:ogc:def:crs:OGC:1.3:CRS84" }
  },
  "features": [
    {
      "type": "Feature",
      "properties": { "highway": "bus_stop", "name": "North Garage" },
      "geometry": { "type": "Point", "coordinates": [-72.2576285, 41.8083063] }
    },
    {
      "type": "Feature",
      "properties": { "highway": "bus_stop", "name": "Foundation" },
      "geometry": { "type": "Point", "coordinates": [-72.2574182, 41.8082293] }
    },
    {
      "type": "Feature",
      "properties": { "highway": "bus_stop", "name": "Fieldhouse" },
      "geometry": { "type": "Point", "coordinates": [-72.2547824, 41.8063945] }
    },
    {
      "type": "Feature",
      "properties": { "highway": "bus_stop", "name": "Student Union" },
      "geometry": { "type": "Point", "coordinates": [-72.2543302, 41.8061715] }
    },
    {
      "type": "Feature",
      "properties": { "highway": "bus_stop", "name": "Bookstore" },
      "geometry": { "type": "Point", "coordinates": [-72.253071, 41.8048234] }
    },
    {
      "type": "Feature",
      "properties": { "highway": "bus_stop", "name": "Hilltop Dorms Outbound" },
      "geometry": { "type": "Point", "coordinates": [-72.2597758, 41.8056954] }
    },
    {
      "type": "Feature",
      "properties": { "highway": "bus_stop", "name": "Hilltop Dorms Inbound" },
      "geometry": { "type": "Point", "coordinates": [-72.2596402, 41.805743] }
    },
    {
      "type": "Feature",
      "properties": {
        "highway": "bus_stop",
        "name": "Hilltop Community Center"
      },
      "geometry": { "type": "Point", "coordinates": [-72.2599822, 41.8028188] }
    },
    {
      "type": "Feature",
      "properties": {
        "highway": "bus_stop",
        "name": "Hilltop Apartments (Lower)"
      },
      "geometry": { "type": "Point", "coordinates": [-72.2597483, 41.8015432] }
    },
    {
      "type": "Feature",
      "properties": { "highway": "bus_stop", "name": "Visitor Center" },
      "geometry": { "type": "Point", "coordinates": [-72.2600296, 41.8094163] }
    },
    {
      "type": "Feature",
      "properties": { "highway": "bus_stop", "name": "Lower F Lot" },
      "geometry": { "type": "Point", "coordinates": [-72.2637929, 41.8088706] }
    },
    {
      "type": "Feature",
      "properties": { "highway": "bus_stop", "name": "Upper F Lot" },
      "geometry": { "type": "Point", "coordinates": [-72.2631159, 41.8107956] }
    },
    {
      "type": "Feature",
      "properties": {
        "highway": "bus_stop",
        "name": "Transportation / Parking Services"
      },
      "geometry": { "type": "Point", "coordinates": [-72.2619329, 41.8113784] }
    },
    {
      "type": "Feature",
      "properties": { "highway": "bus_stop", "name": "Lot A" },
      "geometry": { "type": "Point", "coordinates": [-72.2437063, 41.8138395] }
    },
    {
      "type": "Feature",
      "properties": { "highway": "bus_stop", "name": "Young Building Inbound" },
      "geometry": { "type": "Point", "coordinates": [-72.2473447, 41.8115415] }
    },
    {
      "type": "Feature",
      "properties": {
        "highway": "bus_stop",
        "name": "Young Building Outbound"
      },
      "geometry": { "type": "Point", "coordinates": [-72.2470403, 41.8115375] }
    },
    {
      "type": "Feature",
      "properties": { "highway": "bus_stop", "name": "Towers" },
      "geometry": { "type": "Point", "coordinates": [-72.2541232, 41.8135276] }
    },
    {
      "type": "Feature",
      "properties": { "highway": "bus_stop", "name": "East Campus Northbound" },
      "geometry": { "type": "Point", "coordinates": [-72.2479548, 41.8097539] }
    },
    {
      "type": "Feature",
      "properties": { "highway": "bus_stop", "name": "East Campus Southbound" },
      "geometry": { "type": "Point", "coordinates": [-72.2479725, 41.8093646] }
    },
    {
      "type": "Feature",
      "properties": { "highway": "bus_stop", "name": "Shippee Southbound" },
      "geometry": { "type": "Point", "coordinates": [-72.2458385, 41.8067082] }
    },
    {
      "type": "Feature",
      "properties": { "highway": "bus_stop", "name": "Shippee Northbound" },
      "geometry": { "type": "Point", "coordinates": [-72.2452603, 41.8063921] }
    },
    {
      "type": "Feature",
      "properties": { "highway": "bus_stop", "name": "Music" },
      "geometry": { "type": "Point", "coordinates": [-72.2455052, 41.8055153] }
    },
    {
      "type": "Feature",
      "properties": { "highway": "bus_stop", "name": "Buckley" },
      "geometry": { "type": "Point", "coordinates": [-72.2442742, 41.8051592] }
    },
    {
      "type": "Feature",
      "properties": { "highway": "bus_stop", "name": "Wilbur Cross Way" },
      "geometry": { "type": "Point", "coordinates": [-72.2405915, 41.8020449] }
    },
    {
      "type": "Feature",
      "properties": { "highway": "bus_stop", "name": "Price Chopper" },
      "geometry": { "type": "Point", "coordinates": [-72.241397, 41.8017384] }
    },
    {
      "type": "Feature",
      "properties": { "highway": "bus_stop", "name": "Mansfield Town Hall" },
      "geometry": { "type": "Point", "coordinates": [-72.2425138, 41.8027309] }
    },
    {
      "type": "Feature",
      "properties": { "highway": "bus_stop", "name": "Fine Arts" },
      "geometry": { "type": "Point", "coordinates": [-72.2448796, 41.8038005] }
    },
    {
      "type": "Feature",
      "properties": { "highway": "bus_stop", "name": "E.O. Smith" },
      "geometry": { "type": "Point", "coordinates": [-72.2453552, 41.8034412] }
    },
    {
      "type": "Feature",
      "properties": { "highway": "bus_stop", "name": "Alumni" },
      "geometry": { "type": "Point", "coordinates": [-72.2510583, 41.8039191] }
    },
    {
      "type": "Feature",
      "properties": { "highway": "bus_stop", "name": "West Campus" },
      "geometry": { "type": "Point", "coordinates": [-72.2511081, 41.8040911] }
    },
    {
      "type": "Feature",
      "properties": { "highway": "bus_stop", "name": "Arjona Westbound" },
      "geometry": { "type": "Point", "coordinates": [-72.24874, 41.8056079] }
    },
    {
      "type": "Feature",
      "properties": { "highway": "bus_stop", "name": "Arjona Eastbound" },
      "geometry": { "type": "Point", "coordinates": [-72.2485257, 41.8055319] }
    },
    {
      "type": "Feature",
      "properties": { "highway": "bus_stop", "name": "Recreation Center" },
      "geometry": { "type": "Point", "coordinates": [-72.2527791, 41.8047173] }
    },
    {
      "type": "Feature",
      "properties": { "highway": "bus_stop", "name": "Engineering Eastbound" },
      "geometry": { "type": "Point", "coordinates": [-72.2549318, 41.8083697] }
    },
    {
      "type": "Feature",
      "properties": { "highway": "bus_stop", "name": "Engineering Westbound" },
      "geometry": { "type": "Point", "coordinates": [-72.254971, 41.8084755] }
    },
    {
      "type": "Feature",
      "properties": {
        "highway": "bus_stop",
        "name": "Student Health Services"
      },
      "geometry": { "type": "Point", "coordinates": [-72.2532635, 41.8100241] }
    },
    {
      "type": "Feature",
      "properties": { "highway": "bus_stop", "name": "CLAS" },
      "geometry": { "type": "Point", "coordinates": [-72.2517654, 41.8103513] }
    },
    {
      "type": "Feature",
      "properties": {
        "highway": "bus_stop",
        "name": "UConn Chemistry Westbound"
      },
      "geometry": { "type": "Point", "coordinates": [-72.2529101, 41.8115885] }
    },
    {
      "type": "Feature",
      "properties": {
        "highway": "bus_stop",
        "name": "UConn Chemistry Eastbound"
      },
      "geometry": { "type": "Point", "coordinates": [-72.2534802, 41.8113869] }
    },
    {
      "type": "Feature",
      "properties": { "highway": "bus_stop", "name": "UConn North Campus" },
      "geometry": { "type": "Point", "coordinates": [-72.2572492, 41.8106062] }
    },
    {
      "type": "Feature",
      "properties": { "highway": "bus_stop", "name": "UConn North Campus" },
      "geometry": { "type": "Point", "coordinates": [-72.2577939, 41.8100994] }
    },
    {
      "type": "Feature",
      "properties": {
        "highway": "bus_stop",
        "name": "Visitor Center Outbound"
      },
      "geometry": { "type": "Point", "coordinates": [-72.2614295, 41.8093677] }
    },
    {
      "type": "Feature",
      "properties": {
        "highway": "bus_stop",
        "name": "North Eagleville/Hunting Lodge"
      },
      "geometry": { "type": "Point", "coordinates": [-72.2651908, 41.8075136] }
    },
    {
      "type": "Feature",
      "properties": { "highway": "bus_stop", "name": "Wilbur Cross Way" },
      "geometry": { "type": "Point", "coordinates": [-72.2411629, 41.8025808] }
    },
    {
      "type": "Feature",
      "properties": { "highway": "bus_stop", "name": "Nash Center NW" },
      "geometry": { "type": "Point", "coordinates": [-72.2420352, 41.8042434] }
    },
    {
      "type": "Feature",
      "properties": { "highway": "bus_stop", "name": "Nash Center NE" },
      "geometry": { "type": "Point", "coordinates": [-72.2417507, 41.8044009] }
    },
    {
      "type": "Feature",
      "properties": { "highway": "bus_stop", "name": "Nash Center S" },
      "geometry": { "type": "Point", "coordinates": [-72.2420223, 41.8041107] }
    },
    {
      "type": "Feature",
      "properties": { "highway": "bus_stop", "name": "UConn Lot B" },
      "geometry": { "type": "Point", "coordinates": [-72.243002, 41.80595] }
    },
    {
      "type": "Feature",
      "properties": { "highway": "bus_stop", "name": "Athletic Complex" },
      "geometry": { "type": "Point", "coordinates": [-72.2554708, 41.8007108] }
    }
  ]
}
