{
    "type": "FeatureCollection",
    "name": "cafes",
    "crs": {
      "type": "name",
      "properties": {
        "name": "urn:ogc:def:crs:OGC:1.3:CRS84"
      }
    },
    "features": [
      {
        "type": "Feature",
        "properties": {
          "name": "Beanery Cafe"
        },
        "geometry": {
          "type": "Point",
          "coordinates": [
            -72.25293191783774,
            41.808449396574616
          ]
        }
      },
      {
        "type": "Feature",
        "properties": {
          "name": "Bookworms Cafe"
        },
        "geometry": {
          "type": "Point",
          "coordinates": [
            -72.25175769056578,
            41.806335792137645
          ]
        }
      },
      {
        "type": "Feature",
        "properties": {
          "name": "CrossRoads Cafe"
        },
        "geometry": {
          "type": "Point",
          "coordinates": [
            -72.25214681285553,
            41.80910034931642
          ]
        }
      },
      {
        "type": "Feature",
        "properties": {
          "name": "Market Cafe"
        },
        "geometry": {
          "type": "Point",
          "coordinates": [
            -72.254129584468,
            41.80675783908564
          ]
        }
      },
      {
        "type": "Feature",
        "properties": {
          "name": "nanoByte Cafe"
        },
        "geometry": {
          "type": "Point",
          "coordinates": [
            -72.25993720731125,
            41.807622947245925
          ]
        }
      }
    ]
  }